{"tags":[{"id":1,"latitude":"49.01379","longitude":"8.404435","name":"Castle","hashtag":"#sight"},{"id":2,"latitude":"49.01379","longitude":"8.390071","name":"IWI","hashtag":"#edu"},{"id":3,"latitude":"49.014993","longitude":"8.390049","name":"Building E","hashtag":"#building-e"},{"id":4,"latitude":"49.015608","longitude":"8.390155","name":"Building F","hashtag":"#building-f"},{"id":5,"latitude":"49.016171","longitude":"8.390155","name":"Building M","hashtag":"#building-m"},{"id":6,"latitude":"49.015636","longitude":"8.389318","name":"Building LI","hashtag":"#building-li"},{"id":7,"latitude":"49.014915","longitude":"8.389264","name":"Auditorium He","hashtag":"#auditorium-he"},{"id":8,"latitude":"49.014992","longitude":"8.392365","name":"Building R","hashtag":"#building-r"},{"id":9,"latitude":"49.015738","longitude":"8.391619","name":"Building A","hashtag":"#building-a"},{"id":10,"latitude":"49.016843","longitude":"8.391372","name":"Building B","hashtag":"#building-b"},{"id":11,"latitude":"50","longitude":"7","name":"farAway","hashtag":"#far"},{"id":12,"latitude":"49.0211099","longitude":"8.3710188","name":"farTwo","hashtag":"#farTwo"},{"id":13,"latitude":"49.0211177","longitude":"8.370927499999999","name":"test","hashtag":"#test"}]}